- station:
    buffer: 20000
    epsg: 4326
    latitude: 59.88929
    longitude: 10.12331
    station_id: 0
    station_name: Rotua ved Kluftetangene
- station:
    buffer: 20000
    epsg: 4326
    latitude: 59.881780000000006
    longitude: 10.0896
    station_id: 1
    station_name: Elgtjernsbekken
- station:
    buffer: 20000
    epsg: 4326
    latitude: 59.873171
    longitude: 10.060792
    station_id: 2
    station_name: Guritjernsbekken
- station:
    buffer: 20000
    epsg: 4326
    latitude: 59.86846
    longitude: 10.03501
    station_id: 3
    station_name: Jøssjøbekken
- station:
    buffer: 20000
    epsg: 4326
    latitude: 59.854848
    longitude: 10.048416
    station_id: 4
    station_name: Sandungsbekken
- station:
    buffer: 20000
    epsg: 4326
    latitude: 59.849623
    longitude: 10.017462
    station_id: 5
    station_name: Dypingbekken
- station:
    buffer: 20000
    epsg: 4326
    latitude: 59.853656
    longitude: 10.060717
    station_id: 6
    station_name: Langevannsbekken
- station:
    buffer: 20000
    epsg: 4326
    latitude: 59.85006
    longitude: 10.079139999999999
    station_id: 7
    station_name: Gampedalsbekken
- station:
    buffer: 20000
    epsg: 4326
    latitude: 59.87033
    longitude: 10.090710000000001
    station_id: 8
    station_name: Glitredammen
- station:
    buffer: 20000
    epsg: 4326
    latitude: 59.889430000000004
    longitude: 10.083160000000001
    station_id: 9
    station_name: Elgtjernsbekken NVE
